{
  "results": [
    {
      "name": {
        "title": "Monsieur",
        "first": "Éric",
        "last": "Louis"
      },
      "location": {
        "street": {
          "number": 906,
          "name": "Rue des Écoles"
        },
        "city": "Orsières",
        "state": "Glarus",
        "country": "Switzerland",
        "postcode": 9827,
        "coordinates": {
          "latitude": "-57.1759",
          "longitude": "-29.4216"
        },
        "timezone": {
          "offset": "-4:00",
          "description": "Atlantic Time (Canada), Caracas, La Paz"
        }
      },
      "phone": "076 202 06 70"
    },
    {
      "name": {
        "title": "Mrs",
        "first": "Lilly",
        "last": "Thomas"
      },
      "location": {
        "street": {
          "number": 571,
          "name": "Tremaine Avenue"
        },
        "city": "Timaru",
        "state": "Manawatu-Wanganui",
        "country": "New Zealand",
        "postcode": 23850,
        "coordinates": {
          "latitude": "-75.6412",
          "longitude": "-96.2383"
        },
        "timezone": {
          "offset": "+2:00",
          "description": "Kaliningrad, South Africa"
        }
      },
      "phone": "(479)-390-7367"
    },
    {
      "name": {
        "title": "Miss",
        "first": "Karla",
        "last": "Jørgensen"
      },
      "location": {
        "street": {
          "number": 5085,
          "name": "Valdemarsvej"
        },
        "city": "Gørløse",
        "state": "Midtjylland",
        "country": "Denmark",
        "postcode": 69026,
        "coordinates": {
          "latitude": "-45.7620",
          "longitude": "178.0462"
        },
        "timezone": {
          "offset": "-3:00",
          "description": "Brazil, Buenos Aires, Georgetown"
        }
      },
      "phone": "13122924"
    },
    {
      "name": {
        "title": "Mrs",
        "first": "دینا",
        "last": "زارعی"
      },
      "location": {
        "street": {
          "number": 2254,
          "name": "هلال احمر"
        },
        "city": "اهواز",
        "state": "کرمان",
        "country": "Iran",
        "postcode": 24700,
        "coordinates": {
          "latitude": "5.5879",
          "longitude": "-13.4787"
        },
        "timezone": {
          "offset": "-3:00",
          "description": "Brazil, Buenos Aires, Georgetown"
        }
      },
      "phone": "033-23463421"
    },
    {
      "name": {
        "title": "Miss",
        "first": "Elif",
        "last": "Çağıran"
      },
      "location": {
        "street": {
          "number": 8334,
          "name": "Fatih Sultan Mehmet Cd"
        },
        "city": "Kırıkkale",
        "state": "İstanbul",
        "country": "Turkey",
        "postcode": 18605,
        "coordinates": {
          "latitude": "28.9827",
          "longitude": "-63.4713"
        },
        "timezone": {
          "offset": "+3:00",
          "description": "Baghdad, Riyadh, Moscow, St. Petersburg"
        }
      },
      "phone": "(272)-862-6126"
    },
    {
      "name": {
        "title": "Ms",
        "first": "Orina",
        "last": "Krip'yakevich"
      },
      "location": {
        "street": {
          "number": 8467,
          "name": "Sim'yi Shovkoplyasiv"
        },
        "city": "Znam'yanka",
        "state": "Avtonomna Respublika Krim",
        "country": "Ukraine",
        "postcode": 78300,
        "coordinates": {
          "latitude": "32.2893",
          "longitude": "-111.5451"
        },
        "timezone": {
          "offset": "+3:30",
          "description": "Tehran"
        }
      },
      "phone": "(067) W43-3682"
    },
    {
      "name": {
        "title": "Ms",
        "first": "Hilda",
        "last": "Holmes"
      },
      "location": {
        "street": {
          "number": 2471,
          "name": "Walnut Hill Ln"
        },
        "city": "Adelaide",
        "state": "Western Australia",
        "country": "Australia",
        "postcode": 5987,
        "coordinates": {
          "latitude": "-14.0346",
          "longitude": "-145.5777"
        },
        "timezone": {
          "offset": "-3:00",
          "description": "Brazil, Buenos Aires, Georgetown"
        }
      },
      "phone": "03-9460-7565"
    },
    {
      "name": {
        "title": "Mr",
        "first": "Tvorimir",
        "last": "Yarockiy"
      },
      "location": {
        "street": {
          "number": 4587,
          "name": "Festivalniy provulok"
        },
        "city": "Trostyanec",
        "state": "Odeska",
        "country": "Ukraine",
        "postcode": 93646,
        "coordinates": {
          "latitude": "-79.1570",
          "longitude": "-77.0827"
        },
        "timezone": {
          "offset": "+9:00",
          "description": "Tokyo, Seoul, Osaka, Sapporo, Yakutsk"
        }
      },
      "phone": "(067) Q85-2814"
    },
    {
      "name": {
        "title": "Miss",
        "first": "Nairele",
        "last": "Lima"
      },
      "location": {
        "street": {
          "number": 8012,
          "name": "Rua Vinte E Um"
        },
        "city": "João Pessoa",
        "state": "Minas Gerais",
        "country": "Brazil",
        "postcode": 76473,
        "coordinates": {
          "latitude": "-31.4878",
          "longitude": "-42.7556"
        },
        "timezone": {
          "offset": "+9:00",
          "description": "Tokyo, Seoul, Osaka, Sapporo, Yakutsk"
        }
      },
      "phone": "(56) 8674-0412"
    },
    {
      "name": {
        "title": "Ms",
        "first": "Barbara",
        "last": "Bolier"
      },
      "location": {
        "street": {
          "number": 7646,
          "name": "Goossensweg"
        },
        "city": "Geldrop",
        "state": "Flevoland",
        "country": "Netherlands",
        "postcode": "2115 TY",
        "coordinates": {
          "latitude": "70.6417",
          "longitude": "-86.6008"
        },
        "timezone": {
          "offset": "+3:30",
          "description": "Tehran"
        }
      },
      "phone": "(0417) 624410"
    },
    {
      "name": {
        "title": "Mrs",
        "first": "Lola",
        "last": "Ross"
      },
      "location": {
        "street": {
          "number": 6080,
          "name": "South Street"
        },
        "city": "Canterbury",
        "state": "Gwynedd County",
        "country": "United Kingdom",
        "postcode": "VF2F 7HP",
        "coordinates": {
          "latitude": "79.1606",
          "longitude": "-66.2884"
        },
        "timezone": {
          "offset": "+9:30",
          "description": "Adelaide, Darwin"
        }
      },
      "phone": "015242 34793"
    },
    {
      "name": {
        "title": "Mr",
        "first": "Clyde",
        "last": "Bennett"
      },
      "location": {
        "street": {
          "number": 5254,
          "name": "Jones Road"
        },
        "city": "Ballina",
        "state": "Limerick",
        "country": "Ireland",
        "postcode": 85277,
        "coordinates": {
          "latitude": "-83.5733",
          "longitude": "21.3500"
        },
        "timezone": {
          "offset": "-1:00",
          "description": "Azores, Cape Verde Islands"
        }
      },
      "phone": "071-467-8569"
    },
    {
      "name": {
        "title": "Ms",
        "first": "Prisha",
        "last": "Mendonsa"
      },
      "location": {
        "street": {
          "number": 4505,
          "name": "Old Jail Rd"
        },
        "city": "Hospet",
        "state": "Mizoram",
        "country": "India",
        "postcode": 78079,
        "coordinates": {
          "latitude": "-11.0539",
          "longitude": "29.2077"
        },
        "timezone": {
          "offset": "+4:00",
          "description": "Abu Dhabi, Muscat, Baku, Tbilisi"
        }
      },
      "phone": "7839316269"
    },
    {
      "name": {
        "title": "Mrs",
        "first": "Julia",
        "last": "Ouellet"
      },
      "location": {
        "street": {
          "number": 9621,
          "name": "Grand Marais Ave"
        },
        "city": "Victoria",
        "state": "Québec",
        "country": "Canada",
        "postcode": "W3J 2G0",
        "coordinates": {
          "latitude": "78.2460",
          "longitude": "-145.5569"
        },
        "timezone": {
          "offset": "+4:00",
          "description": "Abu Dhabi, Muscat, Baku, Tbilisi"
        }
      },
      "phone": "T61 A57-1899"
    },
    {
      "name": {
        "title": "Miss",
        "first": "Tina",
        "last": "Cole"
      },
      "location": {
        "street": {
          "number": 64,
          "name": "Poplar Dr"
        },
        "city": "Scottsdale",
        "state": "Rhode Island",
        "country": "United States",
        "postcode": 49596,
        "coordinates": {
          "latitude": "65.4305",
          "longitude": "-1.2841"
        },
        "timezone": {
          "offset": "+9:00",
          "description": "Tokyo, Seoul, Osaka, Sapporo, Yakutsk"
        }
      },
      "phone": "(672) 211-8169"
    },
    {
      "name": {
        "title": "Mr",
        "first": "Giray",
        "last": "Doğan"
      },
      "location": {
        "street": {
          "number": 7810,
          "name": "Talak Göktepe Cd"
        },
        "city": "Kırıkkale",
        "state": "Adana",
        "country": "Turkey",
        "postcode": 13306,
        "coordinates": {
          "latitude": "-10.9847",
          "longitude": "121.5858"
        },
        "timezone": {
          "offset": "-11:00",
          "description": "Midway Island, Samoa"
        }
      },
      "phone": "(054)-816-0172"
    },
    {
      "name": {
        "title": "Ms",
        "first": "Deepika",
        "last": "Shroff"
      },
      "location": {
        "street": {
          "number": 2951,
          "name": "Tank Bund Rd"
        },
        "city": "Tiruchirappalli",
        "state": "Uttar Pradesh",
        "country": "India",
        "postcode": 39714,
        "coordinates": {
          "latitude": "-56.5609",
          "longitude": "-178.6766"
        },
        "timezone": {
          "offset": "+9:00",
          "description": "Tokyo, Seoul, Osaka, Sapporo, Yakutsk"
        }
      },
      "phone": "8258259670"
    },
    {
      "name": {
        "title": "Mrs",
        "first": "Arcelia",
        "last": "Portillo"
      },
      "location": {
        "street": {
          "number": 809,
          "name": "Circunvalación Sierra Leona"
        },
        "city": "Cuetzalán",
        "state": "Quintana Roo",
        "country": "Mexico",
        "postcode": 98027,
        "coordinates": {
          "latitude": "-3.1025",
          "longitude": "-44.8542"
        },
        "timezone": {
          "offset": "+5:00",
          "description": "Ekaterinburg, Islamabad, Karachi, Tashkent"
        }
      },
      "phone": "(668) 502 2856"
    },
    {
      "name": {
        "title": "Mr",
        "first": "Erdal",
        "last": "Sobotta"
      },
      "location": {
        "street": {
          "number": 2852,
          "name": "Mittelstraße"
        },
        "city": "Pfullendorf",
        "state": "Nordrhein-Westfalen",
        "country": "Germany",
        "postcode": 76673,
        "coordinates": {
          "latitude": "-22.3824",
          "longitude": "-15.5421"
        },
        "timezone": {
          "offset": "-12:00",
          "description": "Eniwetok, Kwajalein"
        }
      },
      "phone": "0073-2210129"
    },
    {
      "name": {
        "title": "Mrs",
        "first": "Raquel",
        "last": "Uribe"
      },
      "location": {
        "street": {
          "number": 842,
          "name": "Diagonal Meza"
        },
        "city": "Pacho Viejo",
        "state": "Quintana Roo",
        "country": "Mexico",
        "postcode": 54661,
        "coordinates": {
          "latitude": "-58.7121",
          "longitude": "140.5472"
        },
        "timezone": {
          "offset": "-11:00",
          "description": "Midway Island, Samoa"
        }
      },
      "phone": "(653) 987 4055"
    },
    {
      "name": {
        "title": "Mr",
        "first": "Mehmet",
        "last": "Poyrazoğlu"
      },
      "location": {
        "street": {
          "number": 2344,
          "name": "Atatürk Sk"
        },
        "city": "Aydın",
        "state": "Kahramanmaraş",
        "country": "Turkey",
        "postcode": 18651,
        "coordinates": {
          "latitude": "44.8296",
          "longitude": "-150.3370"
        },
        "timezone": {
          "offset": "+11:00",
          "description": "Magadan, Solomon Islands, New Caledonia"
        }
      },
      "phone": "(982)-151-9568"
    },
    {
      "name": {
        "title": "Ms",
        "first": "Emilia",
        "last": "Ruona"
      },
      "location": {
        "street": {
          "number": 5981,
          "name": "Pirkankatu"
        },
        "city": "Tarvasjoki",
        "state": "Päijät-Häme",
        "country": "Finland",
        "postcode": 90749,
        "coordinates": {
          "latitude": "-75.2928",
          "longitude": "149.6805"
        },
        "timezone": {
          "offset": "+4:30",
          "description": "Kabul"
        }
      },
      "phone": "07-095-318"
    },
    {
      "name": {
        "title": "Mrs",
        "first": "Liliana",
        "last": "Olivares"
      },
      "location": {
        "street": {
          "number": 1759,
          "name": "Privada Nevárez"
        },
        "city": "Xochitlán",
        "state": "Tabasco",
        "country": "Mexico",
        "postcode": 57436,
        "coordinates": {
          "latitude": "48.3661",
          "longitude": "22.7288"
        },
        "timezone": {
          "offset": "+3:30",
          "description": "Tehran"
        }
      },
      "phone": "(614) 077 4263"
    },
    {
      "name": {
        "title": "Mr",
        "first": "Evandro",
        "last": "Aragão"
      },
      "location": {
        "street": {
          "number": 8226,
          "name": "Rua São Sebastiao "
        },
        "city": "Limeira",
        "state": "Ceará",
        "country": "Brazil",
        "postcode": 32558,
        "coordinates": {
          "latitude": "22.2513",
          "longitude": "168.4222"
        },
        "timezone": {
          "offset": "+11:00",
          "description": "Magadan, Solomon Islands, New Caledonia"
        }
      },
      "phone": "(10) 6900-5036"
    },
    {
      "name": {
        "title": "Ms",
        "first": "Maria",
        "last": "Rajković"
      },
      "location": {
        "street": {
          "number": 4693,
          "name": "Ljubomira Stevanovića"
        },
        "city": "Priboj",
        "state": "Nišava",
        "country": "Serbia",
        "postcode": 44977,
        "coordinates": {
          "latitude": "50.4751",
          "longitude": "154.5370"
        },
        "timezone": {
          "offset": "-11:00",
          "description": "Midway Island, Samoa"
        }
      },
      "phone": "038-5424-493"
    },
    {
      "name": {
        "title": "Ms",
        "first": "Hotina",
        "last": "Guchok"
      },
      "location": {
        "street": {
          "number": 2297,
          "name": "Kordubi"
        },
        "city": "Ovruch",
        "state": "Zaporizka",
        "country": "Ukraine",
        "postcode": 76315,
        "coordinates": {
          "latitude": "-40.2414",
          "longitude": "176.1766"
        },
        "timezone": {
          "offset": "-4:00",
          "description": "Atlantic Time (Canada), Caracas, La Paz"
        }
      },
      "phone": "(068) V26-8729"
    },
    {
      "name": {
        "title": "Mr",
        "first": "Juan",
        "last": "Bishop"
      },
      "location": {
        "street": {
          "number": 2083,
          "name": "Washington Ave"
        },
        "city": "Tweed",
        "state": "Victoria",
        "country": "Australia",
        "postcode": 6931,
        "coordinates": {
          "latitude": "-48.7863",
          "longitude": "-131.2586"
        },
        "timezone": {
          "offset": "+5:45",
          "description": "Kathmandu"
        }
      },
      "phone": "07-4224-6771"
    },
    {
      "name": {
        "title": "Mr",
        "first": "Marcos",
        "last": "Santiago"
      },
      "location": {
        "street": {
          "number": 858,
          "name": "Paseo de Extremadura"
        },
        "city": "Arrecife",
        "state": "Navarra",
        "country": "Spain",
        "postcode": 26963,
        "coordinates": {
          "latitude": "47.6075",
          "longitude": "156.6231"
        },
        "timezone": {
          "offset": "-3:00",
          "description": "Brazil, Buenos Aires, Georgetown"
        }
      },
      "phone": "970-926-709"
    },
    {
      "name": {
        "title": "Miss",
        "first": "Sofija",
        "last": "Kitić"
      },
      "location": {
        "street": {
          "number": 1600,
          "name": "Aleksandra Krstića"
        },
        "city": "Ivanjica",
        "state": "Pirot",
        "country": "Serbia",
        "postcode": 97593,
        "coordinates": {
          "latitude": "-66.4510",
          "longitude": "-16.8186"
        },
        "timezone": {
          "offset": "+10:00",
          "description": "Eastern Australia, Guam, Vladivostok"
        }
      },
      "phone": "018-5385-005"
    },
    {
      "name": {
        "title": "Ms",
        "first": "Sunniva",
        "last": "Rosseland"
      },
      "location": {
        "street": {
          "number": 4639,
          "name": "Snipp-Møllers vei"
        },
        "city": "Vestre Jakobselv",
        "state": "Bergen",
        "country": "Norway",
        "postcode": "6770",
        "coordinates": {
          "latitude": "4.4586",
          "longitude": "165.7467"
        },
        "timezone": {
          "offset": "+5:00",
          "description": "Ekaterinburg, Islamabad, Karachi, Tashkent"
        }
      },
      "phone": "67470400"
    },
    {
      "name": {
        "title": "Mr",
        "first": "میلاد",
        "last": "حسینی"
      },
      "location": {
        "street": {
          "number": 7165,
          "name": "شهید مطهری"
        },
        "city": "بندرعباس",
        "state": "قم",
        "country": "Iran",
        "postcode": 21532,
        "coordinates": {
          "latitude": "-75.4535",
          "longitude": "-31.2221"
        },
        "timezone": {
          "offset": "+5:30",
          "description": "Bombay, Calcutta, Madras, New Delhi"
        }
      },
      "phone": "039-05822111"
    },
    {
      "name": {
        "title": "Mr",
        "first": "Harold",
        "last": "Brewer"
      },
      "location": {
        "street": {
          "number": 5745,
          "name": "Railroad St"
        },
        "city": "Chicago",
        "state": "Tennessee",
        "country": "United States",
        "postcode": 33880,
        "coordinates": {
          "latitude": "-0.9924",
          "longitude": "-115.4166"
        },
        "timezone": {
          "offset": "-12:00",
          "description": "Eniwetok, Kwajalein"
        }
      },
      "phone": "(617) 985-7075"
    },
    {
      "name": {
        "title": "Mr",
        "first": "Grgur",
        "last": "Vučetić"
      },
      "location": {
        "street": {
          "number": 8932,
          "name": "Porodice Milošević"
        },
        "city": "Priboj",
        "state": "Kolubara",
        "country": "Serbia",
        "postcode": 71612,
        "coordinates": {
          "latitude": "0.7287",
          "longitude": "57.4223"
        },
        "timezone": {
          "offset": "+4:00",
          "description": "Abu Dhabi, Muscat, Baku, Tbilisi"
        }
      },
      "phone": "018-8772-270"
    },
    {
      "name": {
        "title": "Mrs",
        "first": "Mauren",
        "last": "Souza"
      },
      "location": {
        "street": {
          "number": 2386,
          "name": "Rua São Pedro "
        },
        "city": "Sobral",
        "state": "Roraima",
        "country": "Brazil",
        "postcode": 36491,
        "coordinates": {
          "latitude": "10.6969",
          "longitude": "21.1637"
        },
        "timezone": {
          "offset": "-8:00",
          "description": "Pacific Time (US & Canada)"
        }
      },
      "phone": "(69) 6192-9961"
    },
    {
      "name": {
        "title": "Mr",
        "first": "Nathaniel",
        "last": "Anderson"
      },
      "location": {
        "street": {
          "number": 9555,
          "name": "Tremaine Avenue"
        },
        "city": "Hastings",
        "state": "Manawatu-Wanganui",
        "country": "New Zealand",
        "postcode": 91277,
        "coordinates": {
          "latitude": "-71.9608",
          "longitude": "-91.6126"
        },
        "timezone": {
          "offset": "+4:00",
          "description": "Abu Dhabi, Muscat, Baku, Tbilisi"
        }
      },
      "phone": "(578)-538-0251"
    },
    {
      "name": {
        "title": "Mr",
        "first": "Sohan",
        "last": "Jean"
      },
      "location": {
        "street": {
          "number": 572,
          "name": "Rue du Cardinal-Gerlier"
        },
        "city": "Lille",
        "state": "Meuse",
        "country": "France",
        "postcode": 96116,
        "coordinates": {
          "latitude": "-31.5365",
          "longitude": "-8.1756"
        },
        "timezone": {
          "offset": "+4:30",
          "description": "Kabul"
        }
      },
      "phone": "02-48-69-06-92"
    },
    {
      "name": {
        "title": "Miss",
        "first": "Victoria",
        "last": "Butler"
      },
      "location": {
        "street": {
          "number": 4801,
          "name": "Bridge Road"
        },
        "city": "Liverpool",
        "state": "Cleveland",
        "country": "United Kingdom",
        "postcode": "V7 2GT",
        "coordinates": {
          "latitude": "17.6610",
          "longitude": "13.2075"
        },
        "timezone": {
          "offset": "-4:00",
          "description": "Atlantic Time (Canada), Caracas, La Paz"
        }
      },
      "phone": "016977 90022"
    },
    {
      "name": {
        "title": "Mr",
        "first": "Adolfo",
        "last": "Blanco"
      },
      "location": {
        "street": {
          "number": 8355,
          "name": "Avenida de América"
        },
        "city": "La Coruña",
        "state": "Islas Baleares",
        "country": "Spain",
        "postcode": 56351,
        "coordinates": {
          "latitude": "-79.4739",
          "longitude": "-131.6671"
        },
        "timezone": {
          "offset": "+3:00",
          "description": "Baghdad, Riyadh, Moscow, St. Petersburg"
        }
      },
      "phone": "948-537-027"
    },
    {
      "name": {
        "title": "Mrs",
        "first": "Nerea",
        "last": "Soto"
      },
      "location": {
        "street": {
          "number": 5980,
          "name": "Calle de Alcalá"
        },
        "city": "Gijón",
        "state": "La Rioja",
        "country": "Spain",
        "postcode": 80258,
        "coordinates": {
          "latitude": "-17.6028",
          "longitude": "-103.8597"
        },
        "timezone": {
          "offset": "+6:00",
          "description": "Almaty, Dhaka, Colombo"
        }
      },
      "phone": "920-824-642"
    },
    {
      "name": {
        "title": "Ms",
        "first": "Filicata",
        "last": "Yanushevskiy"
      },
      "location": {
        "street": {
          "number": 6118,
          "name": "9 Sichnya"
        },
        "city": "Lohvicya",
        "state": "Rivnenska",
        "country": "Ukraine",
        "postcode": 72589,
        "coordinates": {
          "latitude": "-44.8825",
          "longitude": "98.9457"
        },
        "timezone": {
          "offset": "+2:00",
          "description": "Kaliningrad, South Africa"
        }
      },
      "phone": "(099) S97-1126"
    },
    {
      "name": {
        "title": "Mr",
        "first": "Oscar",
        "last": "Legrand"
      },
      "location": {
        "street": {
          "number": 8114,
          "name": "Rue Bony"
        },
        "city": "Boulogne-Billancourt",
        "state": "Haute-Saône",
        "country": "France",
        "postcode": 87265,
        "coordinates": {
          "latitude": "-40.0993",
          "longitude": "-107.0395"
        },
        "timezone": {
          "offset": "+9:30",
          "description": "Adelaide, Darwin"
        }
      },
      "phone": "03-57-59-29-81"
    },
    {
      "name": {
        "title": "Mr",
        "first": "Nixon",
        "last": "Williams"
      },
      "location": {
        "street": {
          "number": 6936,
          "name": "Blenheim Road"
        },
        "city": "Porirua",
        "state": "Southland",
        "country": "New Zealand",
        "postcode": 73748,
        "coordinates": {
          "latitude": "33.7127",
          "longitude": "-151.1610"
        },
        "timezone": {
          "offset": "-5:00",
          "description": "Eastern Time (US & Canada), Bogota, Lima"
        }
      },
      "phone": "(984)-068-1906"
    },
    {
      "name": {
        "title": "Mr",
        "first": "Carlos",
        "last": "Bjørnå"
      },
      "location": {
        "street": {
          "number": 4079,
          "name": "Bølerskogen"
        },
        "city": "Kolnes",
        "state": "Bergen",
        "country": "Norway",
        "postcode": "1401",
        "coordinates": {
          "latitude": "77.9401",
          "longitude": "1.3158"
        },
        "timezone": {
          "offset": "-9:00",
          "description": "Alaska"
        }
      },
      "phone": "20095348"
    },
    {
      "name": {
        "title": "Mr",
        "first": "Aloïs",
        "last": "Garcia"
      },
      "location": {
        "street": {
          "number": 725,
          "name": "Rue de L'Abbé-Migne"
        },
        "city": "Dijon",
        "state": "Hautes-Pyrénées",
        "country": "France",
        "postcode": 72817,
        "coordinates": {
          "latitude": "89.9443",
          "longitude": "-171.8894"
        },
        "timezone": {
          "offset": "+1:00",
          "description": "Brussels, Copenhagen, Madrid, Paris"
        }
      },
      "phone": "04-73-98-19-43"
    },
    {
      "name": {
        "title": "Mrs",
        "first": "Fabiola",
        "last": "Alemán"
      },
      "location": {
        "street": {
          "number": 2973,
          "name": "Prolongación Sonora"
        },
        "city": "Papantla",
        "state": "Ciudad de Mexico",
        "country": "Mexico",
        "postcode": 45468,
        "coordinates": {
          "latitude": "-43.8711",
          "longitude": "77.7282"
        },
        "timezone": {
          "offset": "+11:00",
          "description": "Magadan, Solomon Islands, New Caledonia"
        }
      },
      "phone": "(685) 308 0754"
    },
    {
      "name": {
        "title": "Miss",
        "first": "Ellen",
        "last": "Wilson"
      },
      "location": {
        "street": {
          "number": 3032,
          "name": "Novara Avenue"
        },
        "city": "Cobh",
        "state": "Roscommon",
        "country": "Ireland",
        "postcode": 61015,
        "coordinates": {
          "latitude": "-74.5656",
          "longitude": "155.9066"
        },
        "timezone": {
          "offset": "+9:00",
          "description": "Tokyo, Seoul, Osaka, Sapporo, Yakutsk"
        }
      },
      "phone": "041-568-5677"
    },
    {
      "name": {
        "title": "Mrs",
        "first": "Rose",
        "last": "Morin"
      },
      "location": {
        "street": {
          "number": 8265,
          "name": "Charles St"
        },
        "city": "St. Antoine",
        "state": "Newfoundland and Labrador",
        "country": "Canada",
        "postcode": "T4D 2H6",
        "coordinates": {
          "latitude": "-19.3063",
          "longitude": "157.0886"
        },
        "timezone": {
          "offset": "-12:00",
          "description": "Eniwetok, Kwajalein"
        }
      },
      "phone": "K69 A67-4305"
    },
    {
      "name": {
        "title": "Miss",
        "first": "Grace",
        "last": "Nascimento"
      },
      "location": {
        "street": {
          "number": 6632,
          "name": "Rua Pará "
        },
        "city": "Palmas",
        "state": "Maranhão",
        "country": "Brazil",
        "postcode": 66972,
        "coordinates": {
          "latitude": "81.1463",
          "longitude": "-151.5181"
        },
        "timezone": {
          "offset": "-1:00",
          "description": "Azores, Cape Verde Islands"
        }
      },
      "phone": "(48) 8975-1452"
    },
    {
      "name": {
        "title": "Mr",
        "first": "Paco",
        "last": "Ahmad"
      },
      "location": {
        "street": {
          "number": 8325,
          "name": "Hesselinklanden"
        },
        "city": "Emmer-Compascuum",
        "state": "Drenthe",
        "country": "Netherlands",
        "postcode": "3637 SH",
        "coordinates": {
          "latitude": "70.1314",
          "longitude": "68.0446"
        },
        "timezone": {
          "offset": "-3:00",
          "description": "Brazil, Buenos Aires, Georgetown"
        }
      },
      "phone": "(003) 0006180"
    },
    {
      "name": {
        "title": "Monsieur",
        "first": "Timon",
        "last": "Lefebvre"
      },
      "location": {
        "street": {
          "number": 8249,
          "name": "Place du 22 Novembre 1943"
        },
        "city": "Russikon",
        "state": "Fribourg",
        "country": "Switzerland",
        "postcode": 3936,
        "coordinates": {
          "latitude": "-65.7720",
          "longitude": "-170.7940"
        },
        "timezone": {
          "offset": "-10:00",
          "description": "Hawaii"
        }
      },
      "phone": "079 172 19 12"
    }
  ],
  "info": {
    "seed": "a42af606205a6fbb",
    "results": 50,
    "page": 1,
    "version": "1.4"
  }
}